,accuracy,formatted_address,input_string,latitude,longitude,number_of_results,postcode,status
0,ROOFTOP,"67/71 Springvale Rd, Nunawading VIC 3131, Australia","(Chinese) Christian Church of Victoria VIC,Australia",-37.8126688,145.1774027,1,3131,OK
1,ROOFTOP,"Church of Christ, 86 High St, Ararat VIC 3377, Australia","Ararat Church of Christ VIC,Australia",-37.283312,142.935914,1,3377,OK
2,ROOFTOP,"432-446 Centre Rd, Berwick VIC 3806, Australia","Berwick Church of Christ VIC,Australia",-38.048675,145.335825,1,3806,OK
3,ROOFTOP,"58 Wilson St, Brighton VIC 3186, Australia","Brighton Church of Christ VIC,Australia",-37.913188,145.001217,1,3186,OK
4,ROOFTOP,"66 Blakeley Rd, Castlemaine VIC 3450, Australia","Castlemaine Church of Christ VIC,Australia",-37.043649,144.227832,1,3450,OK
5,ROOFTOP,"14 Acland St, St Kilda VIC 3182, Australia","Christ Church (Anglican) VIC,Australia",-37.8635987,144.9758403,1,3182,OK
6,ROOFTOP,"677 Punt Rd, South Yarra VIC 3141, Australia","Christ Church Anglican VIC,Australia",-37.838555,144.986035,1,3141,OK
7,ROOFTOP,"677 Punt Rd, South Yarra VIC 3141, Australia","Christ Church Anglican VIC,Australia",-37.838555,144.986035,1,3141,OK
8,ROOFTOP,"17 Livingstone Cl, Burwood VIC 3125, Australia","Christian Alliance Church of Victoria VIC,Australia",-37.842659,145.108716,1,3125,OK
9,ROOFTOP,"674-680 Doncaster Rd, Doncaster VIC 3108, Australia","Doncaster Church of Christ VIC,Australia",-37.787799,145.130224,1,3108,OK
10,GEOMETRIC_CENTER,"Pakenham St & Sturt St, Echuca VIC 3564, Australia","Echuca Church of Christ VIC,Australia",-36.1281062,144.754076,2,3564,OK
11,ROOFTOP,"188 Blackburn Rd, Doncaster East VIC 3109, Australia","Edge Church Melbourne VIC,Australia",-37.785359,145.16304,1,3109,OK
12,ROOFTOP,"69 McKillop St, Geelong VIC 3220, Australia","Fire Church Geelong VIC,Australia",-38.1536623,144.3600775,1,3220,OK
13,ROOFTOP,"252 Gordon St, Footscray VIC 3011, Australia","Footscray Church of Christ VIC,Australia",-37.7974357,144.888167,1,3011,OK
14,ROOFTOP,"555 N Walnut Grove Rd, Midlothian, TX 76065, USA","Gateway Church (AOG) VIC,Australia",32.487868,-96.942368,1,76065,OK
15,ROOFTOP,"186 Raglan Parade, Warrnambool VIC 3280, Australia","Gateway Church of Christ VIC,Australia",-38.3832099,142.5146802,2,3280,OK
16,ROOFTOP,"31 Saunders Rd, New Gisborne VIC 3438, Australia","Gisborne Church of Christ VIC,Australia",-37.4696114,144.5977399,1,3438,OK
17,ROOFTOP,"420 Waterdale Rd, Heidelberg West VIC 3081, Australia","Heidelberg West Church of Christ VIC,Australia",-37.747403,145.0471811,2,3081,OK
18,ROOFTOP,"91 River Rd, Horsham VIC 3400, Australia","Horsham Church of Christ VIC,Australia",-36.731903,142.2024403,1,3400,OK
19,ROOFTOP,"129 Tenth St, Mildura VIC 3500, Australia","Mildura Church of Christ VIC,Australia",-34.187408,142.1580139,1,3500,OK
20,ROOFTOP,"46-48 Montclair Ave, Glen Waverley VIC 3150, Australia","Monash City Church of Christ VIC,Australia",-37.8810184,145.1621792,1,3150,OK
21,ROOFTOP,"81 High St, Preston VIC 3072, Australia","Northern Community Church of Christ VIC,Australia",-37.7497863,145.0018432,1,3072,OK
22,ROOFTOP,"176 Como Parade W, Parkdale VIC 3195, Australia","Parkdale Church of Christ VIC,Australia",-37.9919913,145.0741022,1,3195,OK
23,ROOFTOP,"17 Tareeda Way, Ocean Grove VIC 3226, Australia","Peninsula Church of Christ VIC,Australia",-38.2577521,144.5498094,2,3226,OK
24,ROOFTOP,"13 Bedford Rd, Ringwood VIC 3134, Australia","Ringwood Church of Christ VIC,Australia",-37.8156,145.232619,1,3134,OK
25,ROOFTOP,"120 Yarrowee St, Sebastopol VIC 3356, Australia","Rise Christian Church Rise Christian VIC,Australia",-37.593417,143.8438231,1,3356,OK
26,ROOFTOP,"72 George St, Robinvale VIC 3549, Australia","Robinvale Church of Christ VIC,Australia",-34.5866723,142.7768954,1,3549,OK
27,ROOFTOP,"2400 Bay Area Blvd, Friendswood, TX 77546, USA","Southeast Church of Christ VIC,Australia",29.5335677,-95.1612202,1,77546,OK
28,ROOFTOP,"2/12 Chesterville Rd, Cheltenham VIC 3192, Australia","Southern Community Church of Christ VIC,Australia",-37.962101,145.056824,1,3192,OK
29,ROOFTOP,"1b/1 MacKay St, Springvale South VIC 3172, Australia","Springvale South Church of Christ VIC,Australia",-37.972117,145.149339,1,3172,OK
30,ROOFTOP,"8/2 King St, Swan Hill VIC 3585, Australia","Swan Hill Church of Christ VIC,Australia",-35.3305334,143.5564618,1,3585,OK
31,ROOFTOP,"390-398 St Georges Rd, Thornbury VIC 3071, Australia","Thornbury Church of Christ VIC,Australia",-37.75691,144.994253,1,3071,OK
32,ROOFTOP,"155 Bowen St, Warragul VIC 3820, Australia","Warragul Church Of Christ VIC,Australia",-38.145458,145.9292277,1,3820,OK
33,ROOFTOP,"119 Douglas Parade, Williamstown VIC 3016, Australia","Williamstown Church of Christ VIC,Australia",-37.854861,144.897094,1,3016,OK
34,ROOFTOP,"209 Flinders Ln, Melbourne VIC 3000, Australia","Anglican Diocese of Melbourne Church VIC,Australia",-37.8163569,144.9678441,1,3000,OK
35,GEOMETRIC_CENTER,"Ground Floor 262 Queen Street, Melbourne VIC 3000, Australia","City on a Hill Church VIC,Australia",-37.812421,144.959797,1,3000,OK
36,ROOFTOP,"174 Collins St, Melbourne VIC 3000, Australia","Collins St. Baptist Church VIC,Australia",-37.8147769,144.967508,1,3000,OK
37,ROOFTOP,"333 Swanston St, Melbourne VIC 3000, Australia","CrossCulture Church VIC,Australia",-37.810456,144.963985,1,3000,OK
38,ROOFTOP,"400 City Rd, Southbank VIC 3006, Australia","Planetshakers Church VIC,Australia",-37.8292387,144.9557145,1,3006,OK
39,ROOFTOP,"156 Collins St, Melbourne VIC 3000, Australia","Scots Presbyterian Church VIC,Australia",-37.8146055,144.9685126,2,3000,OK
40,ROOFTOP,"20 City Rd, Southbank VIC 3006, Australia","St Johns Southgate Lutheran Church VIC,Australia",-37.8206506,144.9669925,1,3006,OK
41,GEOMETRIC_CENTER,"Flinders Ln & Swanston St, Melbourne VIC 3000, Australia","St Paul's Anglican Cathedral Church VIC,Australia",-37.817029,144.967687,1,3000,OK
42,ROOFTOP,"910 Toorak Rd, Camberwell VIC 3124, Australia","UCA Gospel Hall Church VIC,Australia",-37.846358,145.057135,1,3124,OK
43,ROOFTOP,"148 Lonsdale St, Melbourne VIC 3000, Australia","Wesley Church Church VIC,Australia",-37.810301,144.968247,1,3000,OK
44,ROOFTOP,"193 Hotham St, East Melbourne VIC 3002, Australia","Holy Trinity Anglican Church VIC,Australia",-37.814255,144.983619,1,3002,OK
45,ROOFTOP,"176 Simpson St, East Melbourne VIC 3002, Australia","St Nicholas Antiochian Orthodox Church VIC,Australia",-37.8103722,144.9891931,1,3002,OK
46,ROOFTOP,"15 Gisborne St, East Melbourne VIC 3002, Australia","St Peter's Anglican Church VIC,Australia",-37.8097641,144.9751564,1,3002,OK
47,ROOFTOP,"400 City Rd, Southbank VIC 3006, Australia","Planetshakers Church Melbourne City Campus Church VIC,Australia",-37.8292387,144.9557145,1,3006,OK
49,ROOFTOP,"252 Gordon St, Footscray VIC 3011, Australia","Citigate Church VIC,Australia",-37.797465,144.8880441,1,3011,OK
50,ROOFTOP,"60 Paisley St, Footscray VIC 3011, Australia","Footscray Baptist Church VIC,Australia",-37.8002276,144.8952984,1,3011,OK
51,ROOFTOP,"156 Collins St, Melbourne VIC 3000, Australia","West Footscray Presbyterian Church VIC,Australia",-37.8146256,144.9681937,1,3000,OK
52,GEOMETRIC_CENTER,"Yarraville VIC 3013, Australia","Westgate Baptist Church VIC,Australia",-37.8161884,144.8805003,1,3013,OK
53,ROOFTOP,"26 Mason St, Newport VIC 3015, Australia","Newport Baptist Church VIC,Australia",-37.8420547,144.8810005,1,3015,OK
54,ROOFTOP,"43 Paxton St, South Kingsville VIC 3015, Australia","C3 Church VIC,Australia",-37.829152,144.870197,1,3015,OK
55,ROOFTOP,"193 Hotham St, East Melbourne VIC 3002, Australia","Holy Trinity Anglican Church VIC,Australia",-37.814255,144.983619,1,3002,OK
56,ROOFTOP,"214 N Main St, Williamstown, KY 41097, USA","Williamstown Baptist Church VIC,Australia",38.6388379,-84.5601275,1,41097,OK
57,ROOFTOP,"8 Electra St, Williamstown VIC 3016, Australia","Williamstown Gospel Mission Church VIC,Australia",-37.8632636,144.8989724,1,3016,OK
58,ROOFTOP,"87 Cecil St, Williamstown VIC 3016, Australia","Willlamstown Presbyterian Church VIC,Australia",-37.865315,144.9034802,1,3016,OK
59,ROOFTOP,"14 Sargood St, Altona VIC 3018, Australia","Altona Baptist Church VIC,Australia",-37.8686146,144.8291259,1,3018,OK
60,ROOFTOP,"1010 Euless South Main St, Euless, TX 76040, USA","Tongan Methodist Church VIC,Australia",32.8225677,-97.0826206,2,76040,OK
61,ROOFTOP,"12A Sun Cres, Sunshine VIC 3020, Australia","Cloud Christian Church Church VIC,Australia",-37.7875337,144.8307099,1,3020,OK
62,ROOFTOP,"8 Watt St, Sunshine VIC 3020, Australia","Hope of Life Community Church Church VIC,Australia",-37.789061,144.829806,1,3020,OK
63,ROOFTOP,"41 Lance Rd, Sunshine North VIC 3020, Australia","Enjoy Church VIC,Australia",-37.7613606,144.8430302,1,3020,OK
64,ROOFTOP,"33 Howard St, West Melbourne VIC 3003, Australia","Melbourne West Church VIC,Australia",-37.805901,144.952862,1,3003,OK
65,ROOFTOP,"120 Anderson Rd, Sunshine VIC 3020, Australia","Sunshine Presbyterian Church VIC,Australia",-37.7840854,144.8278072,1,3020,OK
66,ROOFTOP,"95 Alfrieda St, St Albans VIC 3021, Australia","GROW Church VIC,Australia",-37.73798,144.801553,1,3021,OK
67,ROOFTOP,"3 W Esplanade, St Albans VIC 3021, Australia","(Croatian) Seventh-day Adventist Church VIC,Australia",-37.742811,144.797679,1,3021,OK
68,ROOFTOP,"116-120 Black Forest Rd, Wyndham Vale VIC 3030, Australia","Wyndham Presbyterian Church VIC,Australia",-37.900867,144.6253709,1,3030,OK
69,ROOFTOP,"14 Sargood St, Altona VIC 3018, Australia","Altona Baptist Church VIC,Australia",-37.8686146,144.8291259,1,3018,OK
71,ROOFTOP,"68-72 Nelson Ave, Altona VIC 3028, Australia","Altona Evangelical Church Church VIC,Australia",-37.880385,144.778968,1,3028,OK
72,ROOFTOP,"61 Central Ave, Altona Meadows VIC 3028, Australia","Altona Meadows/Laverton Uniting Church VIC,Australia",-37.8713621,144.7716416,1,3028,OK
73,ROOFTOP,"15 Perkins Ave, Hoppers Crossing VIC 3029, Australia","Connect City Church West Church VIC,Australia",-37.867193,144.691324,1,3029,OK
74,ROOFTOP,"37-43 Graham Ct, Hoppers Crossing VIC 3029, Australia","Destiny Centre Church VIC,Australia",-37.873808,144.729314,2,3029,OK
76,ROOFTOP,"147-155 Hogans Rd, Hoppers Crossing VIC 3029, Australia","South West Christian Church VIC,Australia",-37.8628669,144.6835738,1,3029,OK
77,GEOMETRIC_CENTER,"152-154 Bellbridge Drive, Hoppers Crossing VIC 3029, Australia","Suburban Baptist Church VIC,Australia",-37.8658658,144.7117248,1,3029,OK
78,ROOFTOP,"28/39 Eucumbene Dr, Ravenhall VIC 3023, Australia","Faith Christian Community Church VIC,Australia",-37.7604345,144.7445643,1,3023,OK
79,ROOFTOP,"Point Cook Senior Secondary College, Boardwalk Blvd & Bergamot Drive, Point Cook VIC 3030, Australia","Lightpoint Church VIC,Australia",-37.887433,144.733617,2,3030,OK
80,GEOMETRIC_CENTER,"Raaf Base Chapel, Point Cook Road, Point Cook VIC 3030, Australia","Point Cook Presbyterian Church VIC,Australia",-37.9244378,144.7488743,1,3030,OK
81,ROOFTOP,"225 Heaths Rd, Werribee VIC 3030, Australia","Werribee Baptist Church VIC,Australia",-37.877851,144.6821771,1,3030,OK
82,ROOFTOP,"156 Collins St, Melbourne VIC 3000, Australia","Flemington Presbyterian Church VIC,Australia",-37.8146055,144.9685126,1,3000,OK
83,ROOFTOP,"12 Brighton St, Flemington VIC 3031, Australia","Newmarket Baptist Church VIC,Australia",-37.785458,144.930295,1,3031,OK
84,ROOFTOP,"60 Maribyrnong Rd, Ascot Vale VIC 3032, Australia","Ascot Vale Uniting Church VIC,Australia",-37.7720309,144.9221698,2,3032,OK
85,GEOMETRIC_CENTER,"Ground Floor 262 Queen Street, Melbourne VIC 3000, Australia","City on a Hill Church VIC,Australia",-37.812421,144.959797,1,3000,OK
87,ROOFTOP,"8/1154 Burwood Hwy, Upper Ferntree Gully VIC 3156, Australia","CityWide Church VIC,Australia",-37.892603,145.301144,1,3156,OK
88,ROOFTOP,"97 Quinn Grove, Keilor East VIC 3033, Australia","Evangelical Christian Church Church VIC,Australia",-37.739698,144.8693181,1,3033,OK
89,GEOMETRIC_CENTER,"1 Taylors Lakes VIC 3038 Victoria, Station St, Taylors Lakes VIC 3038, Australia","Brimbank Presbyterian Church VIC,Australia",-37.700128,144.77428,1,3038,OK
90,ROOFTOP,"58 Reema Blvd, Endeavour Hills VIC 3802, Australia","GraceWest Bible Church Church VIC,Australia",-37.9739534,145.2736352,1,3802,OK
91,ROOFTOP,"23 Lexington Dr, Burnside VIC 3023, Australia","Lake Caroline Community Church Church VIC,Australia",-37.744885,144.752407,1,3023,OK
92,ROOFTOP,"301 Cotham Rd, Kew VIC 3101, Australia","Life In Christ Church Church VIC,Australia",-37.8098389,145.0572776,1,3101,OK
93,ROOFTOP,"350 Calder Park Dr, Sydenham VIC 3037, Australia","Sydenham Baptist Church VIC,Australia",-37.700806,144.756603,1,3037,OK
94,ROOFTOP,"760 Mt Alexander Rd, Moonee Ponds VIC 3039, Australia","Anglican Parish of St Thomas Church VIC,Australia",-37.7653157,144.9247005,1,3039,OK
95,ROOFTOP,"820 Mt Alexander Rd, Moonee Ponds VIC 3039, Australia","Essendon PresbyterianMoonee Ponds Church VIC,Australia",-37.7598643,144.9214185,1,3039,OK
96,ROOFTOP,"45 Eglinton St, Moonee Ponds VIC 3039, Australia","Moonee Ponds Baptist Church VIC,Australia",-37.7691774,144.9162382,1,3039,OK
97,ROOFTOP,"5 Price St, Essendon VIC 3040, Australia","Aberfeldie Baptist Church VIC,Australia",-37.753547,144.893907,1,3040,OK
98,ROOFTOP,"134 - 138 Buckley St, Essendon VIC 3040, Australia","Essendon Baptist Community Church VIC,Australia",-37.756332,144.913516,1,3040,OK
99,ROOFTOP,"8707 E 19th St, Tulsa, OK 74112, USA","International Baptist Church VIC,Australia",36.1362773,-95.8805917,1,74112,OK
100,ROOFTOP,"49 Freight Rd, Tullamarine VIC 3043, Australia","Realife Church VIC,Australia",-37.6919883,144.8773695,1,3043,OK
101,ROOFTOP,"80 Harrick Rd, Keilor Park VIC 3042, Australia","Keilor City Church Church VIC,Australia",-37.724357,144.84738,1,3042,OK
102,ROOFTOP,"19051 N R H Johnson Blvd, Sun City West, AZ 85375, USA","City West AOG Church VIC,Australia",33.6585417,-112.3508362,1,85375,OK
103,ROOFTOP,"8/1154 Burwood Hwy, Upper Ferntree Gully VIC 3156, Australia","CityWide Church VIC,Australia",-37.892603,145.301144,1,3156,OK
104,ROOFTOP,"7333 E 22nd St, Tucson, AZ 85710, USA","Living Hope Family Church Church VIC,Australia",32.207019,-110.8354731,1,85710,OK
105,ROOFTOP,"193 Hotham St, East Melbourne VIC 3002, Australia","Holy Trinity Anglican Parish Church VIC,Australia",-37.814255,144.983619,1,3002,OK
106,ROOFTOP,"701-703 Pascoe Vale Rd, Glenroy VIC 3046, Australia","MeadowView Baptist Church VIC,Australia",-37.7103736,144.9166674,1,3046,OK
107,GEOMETRIC_CENTER,"Derby St & Kent Road, Pascoe Vale South VIC 3044, Australia","Moreland ChristianChurch Church VIC,Australia",-37.7208986,144.9475886,1,3044,OK
108,ROOFTOP,"26 Millewa Cres, Dallas VIC 3047, Australia","Hume Community Baptist Church VIC,Australia",-37.6741304,144.9291326,1,3047,OK
109,ROOFTOP,"43 Paxton St, South Kingsville VIC 3015, Australia","C3 Church VIC,Australia",-37.829152,144.870197,1,3015,OK
110,ROOFTOP,"135 Capel St, North Melbourne VIC 3051, Australia","Central (Chinese) Baptist Church VIC,Australia",-37.8046837,144.9552868,1,3051,OK
111,ROOFTOP,"161 -167 Peel St, North Melbourne VIC 3051, Australia","Greek Free Church Church VIC,Australia",-37.804155,144.955941,1,3051,OK
112,ROOFTOP,"St Marys Anglican Church, 3512 Sunraysia Hwy, Lexton VIC 3352, Australia","St Marys Anglican Church VIC,Australia",-37.277755,143.516983,1,3352,OK
113,ROOFTOP,"54 Lygon St, Carlton VIC 3053, Australia","Lygon St Christian Chapel Church VIC,Australia",-37.8059012,144.966192,2,3053,OK
114,ROOFTOP,"235 Palmerston St, Carlton VIC 3053, Australia","St Jude's Anglican Church VIC,Australia",-37.796229,144.967403,1,3053,OK
115,ROOFTOP,"120 Collins St, Melbourne VIC 3000, Australia","St. Michaels Church VIC,Australia",-37.8142665,144.9696592,1,3000,OK
116,ROOFTOP,"9 Western Ave, Westmeadows VIC 3049, Australia","LifeHouse Church VIC,Australia",-37.684936,144.881076,1,3049,OK
117,ROOFTOP,"491 Sydney Rd, Brunswick VIC 3056, Australia","Brunswick Baptist Church VIC,Australia",-37.765521,144.9620331,1,3056,OK
118,ROOFTOP,"298 Sydney Rd, Coburg VIC 3058, Australia","Coburg Baptist Church VIC,Australia",-37.7470071,144.9661184,1,3058,OK
119,ROOFTOP,"111 Anderson Rd, Fawkner VIC 3060, Australia","Faith Baptist Church VIC,Australia",-37.6962993,144.9666096,1,3060,OK
120,ROOFTOP,"127 Craigieburn Rd West, Craigieburn VIC 3064, Australia","Central Life Church VIC,Australia",-37.598557,144.935054,1,3064,OK
121,ROOFTOP,"16 Rushwood Dr, Craigieburn VIC 3064, Australia","Joy of Life ChristianMinistries Church VIC,Australia",-37.611827,144.950199,1,3064,OK
122,ROOFTOP,"9 Lachlan Cres, Roxburgh Park VIC 3064, Australia","Roxburgh Park Community Church VIC,Australia",-37.618225,144.927568,1,3064,OK
123,ROOFTOP,"75 Interlink Dr, Craigieburn VIC 3064, Australia","Salvos 3064 Church VIC,Australia",-37.603354,144.946952,1,3064,OK
124,ROOFTOP,"16 Rayfield Ave, Craigieburn VIC 3064, Australia","St Thomas Uniting Church VIC,Australia",-37.59681,144.935624,1,3064,OK
125,ROOFTOP,"16-18 Michael St, North Fitzroy VIC 3068, Australia","Clifton Hill Presbyterian Church VIC,Australia",-37.78749,144.990686,1,3068,OK
126,ROOFTOP,"75 Reid St, Fitzroy North VIC 3068, Australia","Fitzroy North Community Church VIC,Australia",-37.785316,144.980772,1,3068,OK
127,ROOFTOP,"648 High St, Reservoir VIC 3073, Australia","Acts 2 Faith Church VIC,Australia",-37.7299601,145.0056227,1,3073,OK
128,ROOFTOP,"542 High St, Northcote VIC 3070, Australia","Northcote Baptist Church VIC,Australia",-37.7636829,145.0001638,1,3070,OK
130,ROOFTOP,"108 Cramer St, Preston VIC 3072, Australia","West Preston Baptist Church VIC,Australia",-37.7388067,144.9905286,1,3072,OK
131,ROOFTOP,"170 Rindge Ave, Cambridge, MA 02140, USA","Reservoir Christian Fellowship Church VIC,Australia",42.3924439,-71.131153,1,2140,OK
132,ROOFTOP,"51-59 Dehnert St, Doncaster East VIC 3109, Australia","Bread of Life Church VIC,Australia",-37.7825727,145.1488686,1,3109,OK
133,ROOFTOP,"1 Livingstone St, Ivanhoe VIC 3079, Australia","Ivanhoe Baptist Church VIC,Australia",-37.76766,145.04263,1,3079,OK
134,ROOFTOP,"St James Anglican Church, 84 Beenak Rd, Wandin North VIC 3139, Australia","St James' Anglican Church VIC,Australia",-37.7888531,145.4332627,1,3139,OK
135,ROOFTOP,"5 Waiora Rd, Heidelberg Heights VIC 3081, Australia","Rosanna Baptist Church VIC,Australia",-37.746469,145.057652,1,3081,OK
136,ROOFTOP,"11 Morang Dr, Mill Park VIC 3082, Australia","Mill Park Baptist Church VIC,Australia",-37.660737,145.053991,1,3082,OK
138,ROOFTOP,"19 Enterprise Dr, Bundoora VIC 3083, Australia","Bundoora Presbyterian Church VIC,Australia",-37.684576,145.071018,1,3083,OK
139,ROOFTOP,"31-61 McLeans Rd, Bundoora VIC 3083, Australia","Encompass Church VIC,Australia",-37.6944794,145.054664,2,3083,OK
140,ROOFTOP,"51 Lusher Rd, Croydon VIC 3136, Australia","Hope Church VIC,Australia",-37.8037299,145.2786732,1,3136,OK
141,ROOFTOP,"760 Mt Alexander Rd, Moonee Ponds VIC 3039, Australia","The Anglican Parish Church VIC,Australia",-37.7653157,144.9247005,1,3039,OK
142,ROOFTOP,"5 Waiora Rd, Heidelberg Heights VIC 3081, Australia","Rosanna Christian Church Church VIC,Australia",-37.746469,145.057652,1,3081,OK
143,ROOFTOP,"2 Chapel St, St Kilda VIC 3182, Australia","All Saints' Anglican Church VIC,Australia",-37.8582357,144.9925414,1,3182,OK
144,ROOFTOP,"37 Grimshaw St, Greensborough VIC 3088, Australia","Living Faith Church Church VIC,Australia",-37.7049411,145.1054777,1,3088,OK
145,ROOFTOP,"86 Clendon Rd, Toorak VIC 3142, Australia","St John's Anglican Church VIC,Australia",-37.841997,145.0145036,1,3142,OK
146,ROOFTOP,"309 Diamond Creek Rd, Plenty VIC 3090, Australia","Diamond Valley Baptist Church VIC,Australia",-37.6776239,145.1230958,1,3090,OK
147,ROOFTOP,"360 Main Rd, Lower Plenty VIC 3093, Australia","Planetshakers North East Church VIC,Australia",-37.7302417,145.1278416,1,3093,OK
148,ROOFTOP,"24 Mayona Rd, Montmorency VIC 3094, Australia","Montmorency Community Church Church VIC,Australia",-37.7137553,145.1169585,1,3094,OK
149,ROOFTOP,"43/49 Nyora Rd, Eltham VIC 3095, Australia","Eltham Baptist Church VIC,Australia",-37.7171909,145.168992,1,3095,OK
150,ROOFTOP,"23 Batman Rd, Eltham VIC 3095, Australia","Eltham Presbyterian Church VIC,Australia",-37.7074188,145.1515753,1,3095,OK
151,ROOFTOP,"39 Lower Rd, Eltham North VIC 3095, Australia","Glen Park Gospel Church VIC,Australia",-37.7000604,145.1498504,1,3095,OK
152,ROOFTOP,"40a Mary St, Highgate WA 6003, Australia","Southern Cross Church VIC,Australia",-31.93715,115.8679,1,6003,OK
153,ROOFTOP,"960 Heidleberg-Kinglake Rd, Hurstbridge VIC 3099, Australia","Green Wedge Christian Community Church VIC,Australia",-37.6368093,145.1973378,1,3099,OK
154,ROOFTOP,"10 Highbury Grove, Kew VIC 3101, Australia","Kew Baptist Church VIC,Australia",-37.8064818,145.0371195,1,3101,OK
155,ROOFTOP,"75A Cotham Rd, Kew VIC 3101, Australia","Melbourne (Chinese) Baptist Church VIC,Australia",-37.8073049,145.0370582,2,3101,OK
156,ROOFTOP,"62 Mark St, North Melbourne VIC 3051, Australia","Melbourne Life Church VIC,Australia",-37.7934011,144.9379942,1,3051,OK
157,ROOFTOP,"16 Osburn Ave, Balwyn North VIC 3104, Australia","St Hils Anglican Church VIC,Australia",-37.7952252,145.0737169,1,3104,OK
158,ROOFTOP,"2 Margaret St, Canterbury VIC 3126, Australia","St Paul's Anglican Church VIC,Australia",-37.827084,145.085378,1,3126,OK
159,ROOFTOP,"2 Leonard St, Deepdene VIC 3103, Australia","Balwyn Gospel Chapel Church VIC,Australia",-37.8106981,145.0680833,1,3103,OK
160,ROOFTOP,"184 Balwyn Rd, Balwyn VIC 3103, Australia","Balwyn Wesleyan Methodist Church VIC,Australia",-37.80407,145.083408,1,3103,OK
161,ROOFTOP,"302 Barkly St, Footscray VIC 3011, Australia","St Columba's Uniting Church VIC,Australia",-37.7988541,144.8939246,1,3011,OK
162,ROOFTOP,"5 Burwood Hwy, Wantirna VIC 3152, Australia","Hills Bible Church Church VIC,Australia",-37.8597477,145.2091157,1,3152,OK
163,ROOFTOP,"136 Doncaster Rd, North Balwyn VIC 3104, Australia","North Balwyn Baptist Church VIC,Australia",-37.7942022,145.0789695,1,3104,OK
164,ROOFTOP,"360 Church St, Richmond VIC 3121, Australia","St Stephen's Anglican Church VIC,Australia",-37.8224703,144.9981836,1,3121,OK
165,ROOFTOP,"30 Lilian St, Bulleen VIC 3105, Australia","St Timothys Anglican Church VIC,Australia",-37.77201,145.096195,1,3105,OK
166,ROOFTOP,"143/145 Parker St, Templestowe VIC 3106, Australia","Manningham Christian Centre Church VIC,Australia",-37.757695,145.127817,1,3106,OK
167,ROOFTOP,"1 Canterbury Rd, Camberwell VIC 3124, Australia","St Mark's Anglican Church VIC,Australia",-37.8212974,145.0592091,1,3124,OK
168,ROOFTOP,"41 Marcus Rd, Templestowe Lower VIC 3107, Australia","Bulleen Baptist Church VIC,Australia",-37.7680692,145.1041966,1,3107,OK
169,ROOFTOP,"1248 High St Rd, Wantirna South VIC 3152, Australia","CityLife Church VIC,Australia",-37.878226,145.215003,1,3152,OK
170,ROOFTOP,"41 Marcus Rd, Manningham VIC 3107, Australia","SonLife Community Church VIC,Australia",-37.7680749,145.1041876,1,3107,OK
171,ROOFTOP,"10 Griffiths St, Richmond VIC 3121, Australia","Bridge Church Church VIC,Australia",-37.8181901,145.0022981,1,3121,OK
172,ROOFTOP,"8 Montgomery St, Doncaster East VIC 3109, Australia","Doncaster City Church VIC,Australia",-37.7882954,145.1603807,1,3109,OK
173,ROOFTOP,"193 Hotham St, East Melbourne VIC 3002, Australia","Holy Trinity Anglican Church VIC,Australia",-37.814255,144.983619,1,3002,OK
174,ROOFTOP,"460 Blackburn Rd, Doncaster East VIC 3109, Australia","Deep Creek Anglican Church VIC,Australia",-37.7662166,145.1666028,1,3109,OK
175,ROOFTOP,"1070 Stud Rd, Rowville VIC 3178, Australia","Doncaster ChristianFellowship Church VIC,Australia",-37.9156516,145.2338271,1,3178,OK
176,GEOMETRIC_CENTER,"47-53 Tunstall Rd, Doncaster East VIC 3109, Australia","East Doncaster Baptist Church VIC,Australia",-37.7937288,145.169813,1,3109,OK
177,ROOFTOP,"188 Blackburn Rd, Doncaster East VIC 3109, Australia","Edge Church VIC,Australia",-37.785359,145.16304,1,3109,OK
179,ROOFTOP,"107 Andersons Creek Rd, Doncaster East VIC 3109, Australia","Templestowe Baptist Church VIC,Australia",-37.7672324,145.1714882,1,3109,OK
180,ROOFTOP,"5 McGowans Rd, Donvale VIC 3111, Australia","Donvale Prebyterian Church VIC,Australia",-37.795799,145.179995,1,3111,OK
181,ROOFTOP,"320 Reynolds Rd, Donvale VIC 3111, Australia","Vantage Point Church VIC,Australia",-37.767467,145.191889,1,3111,OK
182,ROOFTOP,"103 Curdie St, Cobden VIC 3266, Australia","Christian Reformed Church VIC,Australia",-38.3278709,143.0687478,1,3266,OK
184,ROOFTOP,"15-49 Old Melbourne Rd, Chirnside Park VIC 3116, Australia","Life Ministry Centre Church VIC,Australia",-37.7621057,145.3032343,1,3116,OK
185,ROOFTOP,"10 Griffiths St, Richmond VIC 3121, Australia","Bridge Church Church VIC,Australia",-37.8181901,145.0022981,1,3121,OK
186,ROOFTOP,"81 Oxley Rd, Hawthorn VIC 3122, Australia","Auburn Uniting Church VIC,Australia",-37.8247372,145.0428462,1,3122,OK
187,ROOFTOP,"36 Barton St, Hawthorn VIC 3122, Australia","Hawthorn West Baptist Church VIC,Australia",-37.818511,145.022149,1,3122,OK
188,ROOFTOP,"5 St Columbs St, Hawthorn VIC 3122, Australia","St Columb's Anglican Church VIC,Australia",-37.8234704,145.0395057,1,3122,OK
189,ROOFTOP,"6 Clyden Ct, Burwood East VIC 3151, Australia","Melbourne InternationalFellowship Church VIC,Australia",-37.852848,145.146603,1,3151,OK
190,ROOFTOP,"460 Riversdale Rd, Hawthorn East VIC 3123, Australia","Camberwell Baptist Church VIC,Australia",-37.8314652,145.0553295,1,3123,OK
191,ROOFTOP,"581 Riversdale Rd, Camberwell VIC 3124, Australia","Trinity Prebyterian Church VIC,Australia",-37.8317164,145.0618456,1,3124,OK
192,ROOFTOP,"13 Tennyson St, Burwood VIC 3125, Australia","Burwood Community Presbyterian Church Church VIC,Australia",-37.851074,145.130434,1,3125,OK
193,ROOFTOP,"44 Station St, Burwood VIC 3125, Australia","St Thomas' Burwood Anglican Church VIC,Australia",-37.8529101,145.119727,1,3125,OK
194,ROOFTOP,"1A Balwyn Rd, Canterbury VIC 3126, Australia","Canterbury Baptist Church VIC,Australia",-37.823277,145.079076,1,3126,OK
195,ROOFTOP,"460 Riversdale Rd, Hawthorn East VIC 3123, Australia","EastCamberwell Baptist Church VIC,Australia",-37.8314652,145.0553295,1,3123,OK
196,ROOFTOP,"72 Highfield Rd, Canterbury VIC 3126, Australia","Highfield RoadUniting Church VIC,Australia",-37.8314287,145.0858918,1,3126,OK
197,ROOFTOP,"2 Margaret St, Canterbury VIC 3126, Australia","St Paul's Anglican Church VIC,Australia",-37.827084,145.085378,1,3126,OK
198,ROOFTOP,"156 Collins St, Melbourne VIC 3000, Australia","Indonesian Baptist Congregation Fellowship Church VIC,Australia",-37.814644,144.96815,1,3000,OK
199,ROOFTOP,"400 City Rd, Southbank VIC 3006, Australia","Planetshakers City Church VIC,Australia",-37.8292387,144.9557145,1,3006,OK
200,ROOFTOP,"650 Canterbury Rd, Surrey Hills VIC 3127, Australia","St Stephen's Presbyterian Church VIC,Australia",-37.8266165,145.1001921,1,3127,OK
201,ROOFTOP,"17-23 Nelson Rd, Box Hill VIC 3130, Australia","Box Hill Salvation Army Church VIC,Australia",-37.8156814,145.1192306,1,3130,OK
202,ROOFTOP,"503 S High St, Bloomington, IN 47401, USA","Evangelical Community Church Church VIC,Australia",39.1618734,-86.5073751,1,47401,OK
203,ROOFTOP,"38 Lexton Rd, Box Hill North VIC 3129, Australia","Full Gospel Assembly Church VIC,Australia",-37.812281,145.136257,1,3129,OK
204,ROOFTOP,"245 Middleborough Rd, Box Hill South VIC 3128, Australia","Living Streams Christian Church VIC,Australia",-37.8390027,145.1344766,1,3128,OK
206,ROOFTOP,"169 Central Rd, Nunawading VIC 3131, Australia","Red Church VIC,Australia",-37.8248049,145.1674677,2,3131,OK
207,ROOFTOP,"28 Watts St, Box Hill VIC 3128, Australia","Reformed Church VIC,Australia",-37.8159022,145.1258984,1,3128,OK
208,ROOFTOP,"275 Middleborough Rd, Box Hill South VIC 3128, Australia","Revival Centres International Church VIC,Australia",-37.8354377,145.1352222,2,3128,OK
209,ROOFTOP,"711 Station St, Box Hill VIC 3128, Australia","St Paul's Lutheran Church VIC,Australia",-37.8166248,145.1238756,1,3128,OK
210,ROOFTOP,"234 Elgar Rd, Box Hill South VIC 3128, Australia","Wattle Park Chapel Church VIC,Australia",-37.835437,145.112138,1,3128,OK
211,ROOFTOP,"100 Rostrevor Parade, N Mont Albert VIC 3129, Australia","Belmore Road church of Christ Church VIC,Australia",-37.802338,145.108401,1,3129,OK
212,ROOFTOP,"90-92 Como Parade W, Mentone VIC 3194, Australia","St Augustines Anglican Church VIC,Australia",-37.9862885,145.067604,1,3194,OK
213,ROOFTOP,"30/31 Michellan Ct, Bayswater VIC 3153, Australia","Breakthrough Christian Church Church VIC,Australia",-37.8415028,145.2421136,2,3153,OK
214,ROOFTOP,"503 S High St, Bloomington, IN 47401, USA","Evangelical Community Church Church VIC,Australia",39.1618734,-86.5073751,1,47401,OK
215,ROOFTOP,"3 Springfield Rd, Blackburn North VIC 3130, Australia","NewHope Baptist Church VIC,Australia",-37.809157,145.14162,1,3130,OK
216,ROOFTOP,"184 Surrey Rd, Blackburn VIC 3130, Australia","One Community Church VIC,Australia",-37.8156422,145.1565214,1,3130,OK
217,ROOFTOP,"107 Springfield Rd, Blackburn North VIC 3130, Australia","St Alfreds Anglican Church VIC,Australia",-37.809912,145.151878,1,3130,OK
218,ROOFTOP,"333A Canterbury Rd, Forest Hill VIC 3131, Australia","Forest Hill Uniting Church VIC,Australia",-37.8348397,145.1779828,1,3131,OK
219,ROOFTOP,"121 Stud Rd, Dandenong VIC 3175, Australia","LifeSpring Church VIC,Australia",-37.9751686,145.2196038,1,3175,OK
220,ROOFTOP,"169 Central Rd, Nunawading VIC 3131, Australia","Nunawading Seventh-day Adventist Church VIC,Australia",-37.8246486,145.1693729,2,3131,OK
221,ROOFTOP,"171 Rooks Rd, Vermont VIC 3133, Australia","Stairway Church Church VIC,Australia",-37.8338462,145.1883123,1,3133,OK
222,ROOFTOP,"2/82 Lewis Rd, Wantirna South VIC 3152, Australia","Activate Church VIC,Australia",-37.8650228,145.2503511,1,3152,OK
223,ROOFTOP,"100 W Green St, Middletown, DE 19709, USA","Connection Community Church VIC,Australia",39.447914,-75.719331,1,19709,OK
224,ROOFTOP,"9 Hill St, Ringwood East VIC 3135, Australia","Empower Christian Church Church VIC,Australia",-37.8166779,145.2410717,1,3135,OK
225,ROOFTOP,"120 Oban Rd, Ringwood North VIC 3134, Australia","Holy Spirit Parish Church VIC,Australia",-37.7924343,145.2371318,1,3134,OK
226,ROOFTOP,"320/340 Wonga Rd, Warranwood VIC 3134, Australia","Maroondah City Church Church VIC,Australia",-37.7679926,145.2432387,1,3134,OK
227,ROOFTOP,"14 Dickson Cres, Ringwood North VIC 3134, Australia","North Ringwood Uniting Church VIC,Australia",-37.795708,145.23711,2,3134,OK
228,ROOFTOP,"515 S Ridgeview Rd, Olathe, KS 66061, USA","Redemption Church Church VIC,Australia",38.8757614,-94.7977241,1,66061,OK
229,ROOFTOP,"1 Tamar St, Ringwood North VIC 3134, Australia","Ringwood Community Church VIC,Australia",-37.802605,145.231102,1,3134,OK
230,ROOFTOP,"646 Burwood Hwy, Knoxfield VIC 3180, Australia","Ringwood Knox Lutheran Parish Church VIC,Australia",-37.8765958,145.2570069,2,3180,OK
231,ROOFTOP,"143 Maroondah Hwy, Ringwood VIC 3134, Australia","urbanlife Church VIC,Australia",-37.8154072,145.2279157,1,3134,OK
232,ROOFTOP,"78 Cuthbert St, Heathmont VIC 3135, Australia","Heathmont Baptist Church VIC,Australia",-37.834548,145.2392844,1,3135,OK
233,ROOFTOP,"6 Waterloo St, Heathmont VIC 3135, Australia","Heathmont Presbyterian Church VIC,Australia",-37.8333034,145.2355365,1,3135,OK
234,ROOFTOP,"3600 E Shawnee Rd, Muskogee, OK 74403, USA","New Community Church VIC,Australia",35.7710234,-95.3181395,1,74403,OK
235,GEOMETRIC_CENTER,"Bemboka Rd, Croydon Hills VIC 3136, Australia","Croydon Hills and Wonga Park Anglican Church VIC,Australia",-37.7792647,145.2559422,1,3136,OK
236,ROOFTOP,"6 Bemboka Rd, Croydon Hills VIC 3136, Australia","Croydon Hills Baptist Church VIC,Australia",-37.78084,145.257046,1,3136,OK
237,ROOFTOP,"6 Tallent St, Croydon VIC 3136, Australia","Croydon Uniting Church VIC,Australia",-37.7917962,145.281605,1,3136,OK
238,ROOFTOP,"51 Lusher Rd, Croydon VIC 3136, Australia","Hope City Church Church VIC,Australia",-37.8037299,145.2786732,1,3136,OK
239,ROOFTOP,"8-12 Simla St, Mitcham VIC 3132, Australia","Mitcham Baptist Church VIC,Australia",-37.819373,145.190415,1,3132,OK
240,ROOFTOP,"90 Jones Rd, Eagle Point VIC 3878, Australia","Oikos Home Churches Church VIC,Australia",-37.9175282,147.6736683,1,3878,OK
241,ROOFTOP,"281 Colchester Rd, Kilsyth South VIC 3137, Australia","Canterbury Gardens Community Church Church VIC,Australia",-37.828113,145.305559,1,3137,OK
242,ROOFTOP,"382-388 Liverpool Rd, Kilsyth South VIC 3137, Australia","Kilsyth South Baptist Church VIC,Australia",-37.838903,145.317495,1,3137,OK
243,ROOFTOP,"47-49 Carronvale Rd, Mooroolbark VIC 3138, Australia","Carronvale Road Christian Church Church VIC,Australia",-37.781394,145.3282001,1,3138,OK
244,GEOMETRIC_CENTER,"Hull Rd, Mooroolbark VIC 3138, Australia","Mooroolbark Baptist Church VIC,Australia",-37.790611,145.306403,1,3138,OK
245,ROOFTOP,"5/9 Clarke St, Lilydale VIC 3140, Australia","Mooroolbark Christian Fellowship Church VIC,Australia",-37.7579779,145.3506275,1,3140,OK
246,ROOFTOP,"305 Manchester Rd, Mooroolbark VIC 3138, Australia","Mooroolbark SalvosMooroolbark Church VIC,Australia",-37.761741,145.315062,1,3138,OK
247,ROOFTOP,"305 Swansea Rd, Lilydale VIC 3140, Australia","Lilydale Baptist Church VIC,Australia",-37.776262,145.3625268,2,3140,OK
248,ROOFTOP,"12 Surrey Rd, South Yarra VIC 3141, Australia","SouthYarra Community Baptist Church VIC,Australia",-37.846165,144.998525,1,3141,OK
249,ROOFTOP,"86 Clendon Rd, Toorak VIC 3142, Australia","St John's Anglican Church VIC,Australia",-37.841997,145.0145036,1,3142,OK
250,ROOFTOP,"88 Kooyong Rd, Armadale VIC 3143, Australia","Armadale Baptist Church VIC,Australia",-37.8549618,145.0209769,1,3143,OK
251,ROOFTOP,"17-19 Margot St, Chadstone VIC 3148, Australia","Stonnington Baptist Church VIC,Australia",-37.876577,145.096686,1,3148,OK
252,ROOFTOP,"St James Anglican Church, 84 Beenak Rd, Wandin North VIC 3139, Australia","St James' Anglican Church VIC,Australia",-37.7888531,145.4332627,1,3139,OK
253,ROOFTOP,"8 Y St, Ashburton VIC 3147, Australia","Ashburton Baptist Church VIC,Australia",-37.862275,145.079345,1,3147,OK
254,ROOFTOP,"3 Ashburn Grove, Ashburton VIC 3147, Australia","Ashburton Uniting Church VIC,Australia",-37.864352,145.081413,2,3147,OK
255,ROOFTOP,"800 Waverley Rd, Glen Waverley VIC 3150, Australia","Glen Waverley Anglican Church VIC,Australia",-37.89018,145.171109,1,3150,OK
256,GEOMETRIC_CENTER,"Glen Waverley VIC 3150, Australia","Glen Waverley Uniting Church VIC,Australia",-37.8821063,145.1626778,2,3150,OK
257,ROOFTOP,"119 Mountain Hwy, Wantirna VIC 3152, Australia","Kingsway Christian Fellowship Church VIC,Australia",-37.8553066,145.2163676,2,3152,OK
258,ROOFTOP,"758 Waverley Rd, Glen Waverley VIC 3150, Australia","Lifegate Church VIC,Australia",-37.890127,145.167395,1,3150,OK
259,ROOFTOP,"588 High St Rd, Glen Waverley VIC 3150, Australia","Syndal Baptist Church VIC,Australia",-37.872494,145.149274,1,3150,OK
260,ROOFTOP,"9 Anthony St, Dandenong North VIC 3175, Australia","The Covenant Church Church VIC,Australia",-37.967269,145.214509,1,3175,OK
261,ROOFTOP,"2 Lum Rd, Wheelers Hill VIC 3150, Australia","Waverley Baptist Church VIC,Australia",-37.8912572,145.1828986,1,3150,OK
262,ROOFTOP,"2 Vision Dr, Burwood East VIC 3151, Australia","Crossway Baptist Church VIC,Australia",-37.8593625,145.1677884,1,3151,OK
263,ROOFTOP,"1248 High St Rd, Wantirna South VIC 3152, Australia","CityLife Church VIC,Australia",-37.878226,145.215003,1,3152,OK
264,ROOFTOP,"21 Koomba Rd, Wantirna VIC 3152, Australia","Grace Church Church VIC,Australia",-37.852948,145.2162107,1,3152,OK
265,ROOFTOP,"328 Bayswater Rd, Bayswater North VIC 3153, Australia","Calvary Baptist Church VIC,Australia",-37.8313456,145.2686387,1,3153,OK
267,ROOFTOP,"Athenaeum Theatre, 188 Collins St, Melbourne VIC 3000, Australia","Hillsong Melbourne Church VIC,Australia",-37.814868,144.9672932,1,3000,OK
268,ROOFTOP,"199 Bayswater Rd, Bayswater North VIC 3153, Australia","South Croydon Anglican Church VIC,Australia",-37.8199062,145.2694117,1,3153,OK
269,ROOFTOP,"17-19 Falconer Rd, Boronia VIC 3155, Australia","Knox Community Baptist Church VIC,Australia",-37.858329,145.270783,1,3155,OK
271,ROOFTOP,"244 Mt Morton Rd, Belgrave Heights VIC 3160, Australia","Belgrave Heights Presbyterian Church VIC,Australia",-37.919822,145.3448775,1,3160,OK
272,ROOFTOP,"169 Belgrave-Hallam Rd, Belgrave South VIC 3160, Australia","Belgrave South Baptist Church VIC,Australia",-37.9337169,145.3567796,1,3160,OK
273,ROOFTOP,"530 Dandenong Rd, Caulfield North VIC 3161, Australia","Southern Cross Ministriesat St Paul's, Caulfield North Church VIC,Australia",-37.8667781,145.0274822,1,3161,OK
274,ROOFTOP,"St Marys Anglican Church, 3512 Sunraysia Hwy, Lexton VIC 3352, Australia","St Marys Anglican Church VIC,Australia",-37.277755,143.516983,1,3352,OK
275,ROOFTOP,"514 Dandenong Rd, Caulfield North VIC 3161, Australia","(Indonesian) Praise Centre Church VIC,Australia",-37.865371,145.024533,2,3161,OK
276,ROOFTOP,"1 Neerim Rd, Caulfield VIC 3162, Australia","Caulfield ?C Elwood Presbyterian Church VIC,Australia",-37.8853433,145.0294207,1,3162,OK
277,ROOFTOP,"1 Neerim Rd, Caulfield VIC 3162, Australia","Caulfield Evangelical Methodist Church VIC,Australia",-37.887481,145.028652,1,3162,OK
278,ROOFTOP,"1 Neerim Rd, Caulfield VIC 3162, Australia","Caulfield Presbyterian Church VIC,Australia",-37.8853433,145.0294207,1,3162,OK
279,ROOFTOP,"44 Murrumbeena Rd, Murrumbeena VIC 3163, Australia","Murrumbeena Baptist Church VIC,Australia",-37.8883812,145.0667777,1,3163,OK
280,ROOFTOP,"832-834 High St Rd, Glen Waverley VIC 3150, Australia","Discover Church VIC,Australia",-37.875248,145.1725537,2,3150,OK
281,ROOFTOP,"216 E Boundary Rd, East Bentleigh VIC 3165, Australia","Eastleigh Community Church VIC,Australia",-37.913317,145.061055,1,3165,OK
282,ROOFTOP,"26 Abbeygate St, Oakleigh VIC 3166, Australia","Oakleigh Anglican Church VIC,Australia",-37.9066681,145.0900323,2,3166,OK
283,ROOFTOP,"185 Warrigal Rd, Hughesdale VIC 3166, Australia","Oakleigh Baptist Church VIC,Australia",-37.907672,145.085039,1,3166,OK
284,GEOMETRIC_CENTER,"Cnr Parkers Rd & Blanche Ave, Parkdale VIC 3195, Australia","St. David's Uniting Church VIC,Australia",-37.9924826,145.0790212,1,3195,OK
285,GEOMETRIC_CENTER,"964 Centre Road, Oakleigh South VIC 3167, Australia","South Oakleigh Gospel Hall Church VIC,Australia",-37.9244003,145.0837581,1,3167,OK
286,GEOMETRIC_CENTER,"King William St, Fitzroy VIC 3065, Australia","All Saints Church VIC,Australia",-37.8022236,144.9786117,1,3065,OK
287,ROOFTOP,"25 Burton Ave, Clayton VIC 3168, Australia","Clayton Church of Christ(+Mandarin,Cantonese) Clayton Church VIC,Australia",-37.925519,145.1178523,1,3168,OK
288,ROOFTOP,"118 Wellington Rd, Clayton VIC 3168, Australia","Monash Christian Fellowship Church VIC,Australia",-37.917113,145.143136,1,3168,OK
289,GEOMETRIC_CENTER,"316-322 Kingston Rd, Clarinda VIC 3169, Australia","Kingston City Church VIC,Australia",-37.957869,145.111156,1,3169,OK
290,GEOMETRIC_CENTER,"19 McDonalds La, Mulgrave VIC 3170, Australia","Monash Christian Church VIC,Australia",-37.9082044,145.1553039,1,3170,OK
291,ROOFTOP,"43 Paxton St, South Kingsville VIC 3015, Australia","C3 Church VIC,Australia",-37.829152,144.870197,1,3015,OK
292,ROOFTOP,"3 Albert Ave, Springvale VIC 3171, Australia","St. John??s (German) Lutheran Church VIC,Australia",-37.946506,145.147185,1,3171,OK
293,ROOFTOP,"677 Punt Rd, South Yarra VIC 3141, Australia","Christ Church Anglican Church VIC,Australia",-37.838555,144.986035,1,3141,OK
294,ROOFTOP,"50 Tootal Rd, Dingley Village VIC 3172, Australia","Destiny Church VIC,Australia",-37.9626912,145.1270278,1,3172,OK
295,ROOFTOP,"1700 Highland Village Rd, Highland Village, TX 75077, USA","Village Church Church VIC,Australia",33.079085,-97.056293,1,75077,OK
296,ROOFTOP,"1109 Hill St, Buffalo, TX 75831, USA","Miracle Christian Centre Church VIC,Australia",31.4569589,-96.08025,1,75831,OK
297,ROOFTOP,"130 Railway Parade, Noble Park VIC 3174, Australia","The First (Hungarian) Baptist Church VIC,Australia",-37.979518,145.194616,1,3174,OK
298,ROOFTOP,"927 Springvale Rd, Keysborough VIC 3173, Australia","Lighthouse Christian Church Church VIC,Australia",-38.0010828,145.1429856,1,3173,OK
299,ROOFTOP,"9 Claredale Rd, Doveton VIC 3177, Australia","Ebenezer Christian Assembly Church VIC,Australia",-37.9976282,145.2281677,2,3177,OK
300,ROOFTOP,"121 Stud Rd, Dandenong VIC 3175, Australia","Lifespring Church Church VIC,Australia",-37.9751686,145.2196038,1,3175,OK
301,ROOFTOP,"255 Outlook Dr, Dandenong North VIC 3175, Australia","Dandenong Christian Reformed Church Church VIC,Australia",-37.9399028,145.2111751,1,3175,OK
302,ROOFTOP,"15 Clifford St, Huntingdale VIC 3166, Australia","Faith Christian Church Church VIC,Australia",-37.9093937,145.1055557,1,3166,OK
303,ROOFTOP,"127 Kidds Rd, Doveton VIC 3177, Australia","Doveton Baptist Church VIC,Australia",-37.9877151,145.2387448,1,3177,OK
304,ROOFTOP,"1070 Stud Rd, Rowville VIC 3178, Australia","Australia for Christ Fellowship Church VIC,Australia",-37.9156516,145.2338271,1,3178,OK
305,ROOFTOP,"7 Seismic Ct, Rowville VIC 3178, Australia","Hillview Community Church Church VIC,Australia",-37.908617,145.245274,1,3178,OK
306,GEOMETRIC_CENTER,"Wellington Rd & Le John St, Rowville VIC 3178, Australia","Rowville Baptist Church VIC,Australia",-37.9260098,145.2498955,1,3178,OK
307,ROOFTOP,"1139 Buxton-Marysville Rd, Marysville VIC 3779, Australia","the.Church Church VIC,Australia",-37.508645,145.749749,1,3779,OK
308,ROOFTOP,"11501 Bannister Rd, Kansas City, MO 64134, USA","Hope of Glory Church VIC,Australia",38.949347,-94.4490969,1,64134,OK
309,ROOFTOP,"31 Spring St, Prahran VIC 3181, Australia","Melbourne Zimbabwean Methodist Church VIC,Australia",-37.8504818,145.0047418,1,3181,OK
310,ROOFTOP,"61 Mcilwrick St, Windsor VIC 3181, Australia","Kardinia Church Church VIC,Australia",-37.855939,144.996823,1,3181,OK
311,ROOFTOP,"334 Fulton Ave, Hempstead, NY 11550, USA","Miracle Christian Centre Church VIC,Australia",40.7087559,-73.6223491,1,11550,OK
312,ROOFTOP,"9 Pakington St, St Kilda VIC 3182, Australia","St Kilda Baptist Church VIC,Australia",-37.866083,144.986975,1,3182,OK
314,ROOFTOP,"156 Collins St, Melbourne VIC 3000, Australia","Elwood Presbyterian Church VIC,Australia",-37.8146256,144.9681937,1,3000,OK
315,ROOFTOP,"164 Bay St, Brighton VIC 3186, Australia","Brighton Baptist Church VIC,Australia",-37.90508,144.997601,1,3186,OK
316,ROOFTOP,"2 Wolseley Grove, Brighton VIC 3186, Australia","St Leonard's Uniting Church VIC,Australia",-37.9261836,144.9946449,1,3186,OK
317,ROOFTOP,"360 Church St, Richmond VIC 3121, Australia","St Stephen's Anglican Church VIC,Australia",-37.8224703,144.9981836,1,3121,OK
319,ROOFTOP,"99-101 Argus St, Cheltenham VIC 3192, Australia","Bayside church Church VIC,Australia",-37.959779,145.07473,2,3192,OK
320,ROOFTOP,"223-225 Balcombe Rd, Beaumaris VIC 3193, Australia","Beaumaris Baptist Church VIC,Australia",-37.9794276,145.0475865,1,3193,OK
321,ROOFTOP,"78 Dalgetty Rd, Beaumaris VIC 3193, Australia","Beaumaris-Black Rock Uniting Church VIC,Australia",-37.9867175,145.0380681,2,3193,OK
322,ROOFTOP,"36 Harpley St, Cheltenham VIC 3192, Australia","Mentone Baptist Church VIC,Australia",-37.974183,145.0724556,1,3192,OK
323,ROOFTOP,"12 McDonald St, Mordialloc VIC 3195, Australia","Mordialloc Presbyterian Church VIC,Australia",-38.00482,145.0882065,1,3195,OK
325,ROOFTOP,"13 Hi-Tech Pl, Seaford VIC 3198, Australia","Fire Church Church VIC,Australia",-38.116244,145.138684,1,3198,OK
326,GEOMETRIC_CENTER,"Delacombe Park, Overport Road, Frankston South VIC 3199, Australia","Frankston Reformed Presbyterian Church VIC,Australia",-38.162382,145.125832,2,3199,OK
327,ROOFTOP,"14 Heversham Dr, Seaford VIC 3198, Australia","Gateway Family Church VIC,Australia",-38.111638,145.139995,1,3198,OK
328,ROOFTOP,"234 Elgar Rd, Box Hill South VIC 3128, Australia","Grace Christian Community Church VIC,Australia",-37.8354711,145.1121419,2,3128,OK
329,ROOFTOP,"51 Lusher Rd, Croydon VIC 3136, Australia","Hope Church VIC,Australia",-37.8037299,145.2786732,1,3136,OK
330,ROOFTOP,"26 High St, Frankston VIC 3199, Australia","Jubilee Church VIC,Australia",-38.1483308,145.1192576,1,3199,OK
331,ROOFTOP,"55 Halton Rd, Noble Park North VIC 3174, Australia","Miracle Christian Centre Church VIC,Australia",-37.954502,145.192201,1,3174,OK
332,ROOFTOP,"252 Frankston - Flinders Rd, Frankston VIC 3199, Australia","Peninsula City Church Church VIC,Australia",-38.1783982,145.1374198,1,3199,OK
333,ROOFTOP,"261 McKinnon Rd, McKinnon VIC 3204, Australia","Reformed Presbyterian Church VIC,Australia",-37.911831,145.044545,1,3204,OK
334,ROOFTOP,"210 Dorcas St, South Melbourne VIC 3205, Australia","St Lukes Anglican Church VIC,Australia",-37.832373,144.96106,1,3205,OK
335,ROOFTOP,"36 Radiata St, Frankston North VIC 3199, Australia","Frankston Presbyterian Church VIC,Australia",-38.1175694,145.1548681,1,3199,OK
336,ROOFTOP,"334 Fulton Ave, Hempstead, NY 11550, USA","Miracle Christian Centre Church VIC,Australia",40.7087559,-73.6223491,1,11550,OK
337,ROOFTOP,"46 Lillimur Rd, Ormond VIC 3149, Australia","Glen Eira Christian Community Church VIC,Australia",-37.900068,145.042318,1,3149,OK
338,ROOFTOP,"261 McKinnon Rd, McKinnon VIC 3204, Australia","McKinnon Reformed Presbyterian Church VIC,Australia",-37.911831,145.044545,1,3204,OK
339,ROOFTOP,"29-37 Ballantyne St, South Melbourne VIC 3006, Australia","Bethany International Church VIC,Australia",-37.829305,144.957275,1,3006,OK
340,ROOFTOP,"115 Kerferd Rd, Albert Park VIC 3026, Australia","Albert Park/Port Melbourne Baptist Church VIC,Australia",-37.8462299,144.9551127,1,3026,OK
341,ROOFTOP,"193 Hotham St, East Melbourne VIC 3002, Australia","Holy Trinity Anglican Church VIC,Australia",-37.814255,144.983619,1,3002,OK
342,ROOFTOP,"76-84 Flinders Ave, Lara VIC 3212, Australia","Lifeway Christian Church VIC,Australia",-38.017655,144.406099,1,3212,OK
343,ROOFTOP,"12 Tarkin Ct, Bell Park VIC 3215, Australia","North Geelong Presbyterian Church VIC,Australia",-38.0981859,144.3428723,1,3215,OK
344,ROOFTOP,"1 Douro St, North Geelong VIC 3215, Australia","Pivot City Church Church VIC,Australia",-38.1219325,144.3473597,1,3215,OK
345,GEOMETRIC_CENTER,"4-32 Province Boulevard, Highton VIC 3216, Australia","Barrabool Hills Baptist Church VIC,Australia",-38.1607352,144.3071841,1,3216,OK
346,ROOFTOP,"94-96 Pioneer Rd, Grovedale VIC 3216, Australia","Grovedale Baptist Church VIC,Australia",-38.2015593,144.3311372,1,3216,OK
347,ROOFTOP,"86 Clendon Rd, Toorak VIC 3142, Australia","St John's Anglican Church VIC,Australia",-37.841997,145.0145036,1,3142,OK
348,ROOFTOP,"48 Waurnvale Dr, Belmont VIC 3216, Australia","Waurn Ponds Community Church VIC,Australia",-38.194621,144.322749,1,3216,OK
349,ROOFTOP,"231 Pakington St, Geelong West VIC 3218, Australia","Geelong Christian Reformed Church VIC,Australia",-38.145868,144.3470198,2,3218,OK
350,GEOMETRIC_CENTER,"Crn Volum St and Shannon Ave Manifold Heights, Manifold Heights VIC 3218, Australia","Manifold Heights Baptist Church VIC,Australia",-38.139042,144.33615,1,3218,OK
351,ROOFTOP,"277 Church St, Hamlyn Heights VIC 3218, Australia","St Alban??s Anglican Church VIC,Australia",-38.1293539,144.3250392,1,3218,OK
352,ROOFTOP,"230 McKillop St, East Geelong VIC 3219, Australia","St Matthew's Anglican Church VIC,Australia",-38.1581653,144.3731156,1,3219,OK
353,GEOMETRIC_CENTER,"Ground Floor 262 Queen Street, Melbourne VIC 3000, Australia","City on a Hill Church VIC,Australia",-37.812421,144.959797,1,3000,OK
354,ROOFTOP,"261 McKinnon Rd, McKinnon VIC 3204, Australia","Reformed Presbyterian Church VIC,Australia",-37.911831,145.044545,1,3204,OK
356,ROOFTOP,"45 Central Rd, Clifton Springs VIC 3222, Australia","Clifton Springs Baptist Church VIC,Australia",-38.1629136,144.562207,1,3222,OK
357,ROOFTOP,"276 Jetty Rd, Curlewis VIC 3222, Australia","Drysdale Community Church Church VIC,Australia",-38.1793985,144.5499409,1,3222,OK
358,GEOMETRIC_CENTER,"Portarlington Rd, Portarlington VIC 3223, Australia","Church By The Bay Church VIC,Australia",-38.1247223,144.6304428,1,3223,OK
359,ROOFTOP,"TIA Hall, 12 Price, St Torquay VIC 3228, Australia","Bells Beach Christian Church VIC,Australia",-38.335281,144.32055,1,3228,OK
360,ROOFTOP,"25 Grossmans Rd, Torquay VIC 3228, Australia","Torquay Christian Fellowship Church VIC,Australia",-38.323112,144.315371,1,3228,OK
361,ROOFTOP,"35 Boston Rd, Torquay VIC 3228, Australia","Torquay Salvos Church VIC,Australia",-38.3325496,144.3189218,1,3228,OK
362,GEOMETRIC_CENTER,"Uniting Church Building,, Murch Cres, Anglesea VIC 3230, Australia","Anglesea Baptist Church VIC,Australia",-38.405655,144.186997,1,3230,OK
363,ROOFTOP,"3822 Cobden-Warrnambool Rd, Naringal VIC 3277, Australia","Naringal Baptist Church VIC,Australia",-38.3961266,142.6941358,1,3277,OK
364,ROOFTOP,"2645 W. Northbend, Cincinnati, OH 45239, USA","Covenant Truth Church VIC,Australia",39.1897871,-84.5720912,1,45239,OK
365,ROOFTOP,"200 Timor St, Warrnambool VIC 3280, Australia","Extreme Life Church VIC,Australia",-38.384299,142.481097,1,3280,OK
366,ROOFTOP,"86 Clendon Rd, Toorak VIC 3142, Australia","St John'sAnglican Church VIC,Australia",-37.841997,145.0145036,1,3142,OK
367,ROOFTOP,"25/33 Learmonth St, Portland VIC 3305, Australia","Portland Baptist Church VIC,Australia",-38.3275823,141.5990323,2,3305,OK
368,GEOMETRIC_CENTER,"1430 Western Hwy, Rockbank VIC 3335, Australia","Living Springs Baptist Church VIC,Australia",-37.7478888,144.7171293,1,3335,OK
369,ROOFTOP,"51 Lusher Rd, Croydon VIC 3136, Australia","Highway of Hope Church VIC,Australia",-37.8037299,145.2786732,1,3136,OK
370,ROOFTOP,"19 Claret Ash Blvd, Melton West VIC 3337, Australia","Melton Assembly of God Church VIC,Australia",-37.667874,144.545078,1,3337,OK
371,ROOFTOP,"1-5 West Melton Drive, Melton West VIC 3337, Australia","Melton Baptist Church VIC,Australia",-37.6780696,144.5687012,1,3337,OK
372,ROOFTOP,"55 Palmerston St, Melton VIC 3337, Australia","Melton Presbyterian Church VIC,Australia",-37.6815195,144.582578,2,3337,OK
373,ROOFTOP,"107 Living Way Rd, Adel, GA 31620, USA","Open Door Baptist Church VIC,Australia",31.1342835,-83.3910239,2,31620,OK
374,ROOFTOP,"222 Main St, Bacchus Marsh VIC 3340, Australia","Bacchus Marsh Christian Church Church VIC,Australia",-37.676301,144.442463,1,3340,OK
375,ROOFTOP,"49 Lydiard St S, Ballarat Central VIC 3350, Australia","Ballarat Anglican Church VIC,Australia",-37.5636298,143.8576949,1,3350,OK
376,ROOFTOP,"17 Dawson St N, Ballarat Central VIC 3350, Australia","Ballarat Christian Fellowship Church VIC,Australia",-37.5594398,143.8533425,1,3350,OK
377,GEOMETRIC_CENTER,"316 Walker St., Ballarat North VIC 3350, Australia","Ballarat North Baptist Church VIC,Australia",-37.541977,143.869176,1,3350,OK
378,ROOFTOP,"121 Gillies St S, Ballarat Central VIC 3350, Australia","one2one Gillies Street Churchof Christ Church VIC,Australia",-37.5660189,143.8162324,1,3350,OK
379,ROOFTOP,"410 York St, Ballarat East VIC 3350, Australia","York Street Church of Christ Church VIC,Australia",-37.5693382,143.880542,1,3350,OK
380,ROOFTOP,"102 Eureka St, Ballarat Central VIC 3350, Australia","Ballarat City Church Church VIC,Australia",-37.5672061,143.8690946,1,3350,OK
381,ROOFTOP,"289 Baillie St, Horsham VIC 3400, Australia","Southern Mallee CooperativeParish Church VIC,Australia",-36.713536,142.196807,1,3400,OK
382,ROOFTOP,"162 Baillie St, Horsham VIC 3400, Australia","Anglican Parish of Horsham Church VIC,Australia",-36.711285,142.199714,1,3400,OK
383,ROOFTOP,"17 Florence St, Horsham VIC 3402, Australia","Harvest Christian Church Church VIC,Australia",-36.7033048,142.1860458,1,3402,OK
384,ROOFTOP,"162 Baillie St, Horsham VIC 3400, Australia","The Anglican Parish of Horsham Church VIC,Australia",-36.711285,142.199714,2,3400,OK
385,ROOFTOP,"7 Bowen St, Camberwell VIC 3124, Australia","Salvation Army Church VIC,Australia",-37.839092,145.063617,1,3124,OK
386,ROOFTOP,"155 Verney Rd, Shepparton VIC 3630, Australia","Encounter Church VIC,Australia",-36.3540578,145.4167853,1,3630,OK
387,ROOFTOP,"207 Gap Rd, Sunbury VIC 3429, Australia","Sunbury Baptist Church VIC,Australia",-37.578582,144.702556,1,3429,OK
388,ROOFTOP,"209 Flinders Ln, Melbourne VIC 3000, Australia","Anglican Parish Church VIC,Australia",-37.8163569,144.9678441,1,3000,OK
389,ROOFTOP,"35 Aitken St, Gisborne VIC 3437, Australia","Faithworks Church VIC,Australia",-37.487085,144.591977,1,3437,OK
390,ROOFTOP,"66 Aitken St, Gisborne VIC 3437, Australia","Gisborne Presbyterian Church VIC,Australia",-37.4902396,144.5900395,1,3437,OK
391,ROOFTOP,"247 Station Rd, New Gisborne VIC 3438, Australia","House Of The Rock Church VIC,Australia",-37.462099,144.5968475,1,3438,OK
392,ROOFTOP,"54 Madeleine Rd, Clayton VIC 3168, Australia","St Andrews Presbyterian Church VIC,Australia",-37.9187718,145.1207579,1,3168,OK
393,ROOFTOP,"43 Ebden St, Kyneton VIC 3444, Australia","Kyneton Baptist Church VIC,Australia",-37.2471486,144.4504284,1,3444,OK
394,ROOFTOP,"1 Canterbury Rd, Camberwell VIC 3124, Australia","St Mark??s Anglican Church VIC,Australia",-37.8212974,145.0592091,1,3124,OK
395,ROOFTOP,"53/55 Guava St, Red Cliffs VIC 3496, Australia","Red Cliffs Church of Christ Church VIC,Australia",-34.310145,142.191431,2,3496,OK
396,ROOFTOP,"247 Eleventh St, Mildura VIC 3500, Australia","Anglican Parish of the Northern Mallee Church VIC,Australia",-34.190067,142.157509,2,3500,OK
397,ROOFTOP,"18 Alexina St, St Albans VIC 3021, Australia","Parish of St Alban the Martyr Church VIC,Australia",-37.739348,144.798288,1,3021,OK
398,ROOFTOP,"76 Windy Hill Rd, Marietta, GA 30060, USA","History Makers Church VIC,Australia",33.894445,-84.5668893,1,30060,OK
400,ROOFTOP,"757 McIvor Hwy, Junortoun VIC 3550, Australia","Bendigo Baptist Church VIC,Australia",-36.7680506,144.34503,2,3550,OK
401,GEOMETRIC_CENTER,"35-41 Forest Street, Bendigo VIC 3550, Australia","Bendigo (St John's) Presbyterian Church VIC,Australia",-36.758828,144.274917,1,3550,OK
402,ROOFTOP,"42 Ophir St, Golden Square VIC 3555, Australia","Golden City Baptist (Ind.) Church VIC,Australia",-36.7646225,144.2591696,1,3555,OK
403,ROOFTOP,"55 Halton Rd, Noble Park North VIC 3174, Australia","Miracle Christian Centre Church VIC,Australia",-37.954502,145.192201,1,3174,OK
404,ROOFTOP,"156 Collins St, Melbourne VIC 3000, Australia","Evangelical Presbyterian Church VIC,Australia",-37.8146256,144.9681937,1,3000,OK
405,ROOFTOP,"9 Pine Rd, Shepparton VIC 3630, Australia","GV Christian Fellowship Church VIC,Australia",-36.3559012,145.403161,1,3630,OK
406,ROOFTOP,"155 Verney Rd, Shepparton VIC 3630, Australia","Shepparton AOG Church VIC,Australia",-36.3540578,145.4167853,1,3630,OK
407,ROOFTOP,"600 Wyndham St, Shepparton VIC 3630, Australia","Shepparton Baptist Church VIC,Australia",-36.3978712,145.3949308,1,3630,OK
408,ROOFTOP,"500 Collins St, Melbourne VIC 3000, Australia","Exchange Church Church VIC,Australia",-37.8178471,144.957636,1,3000,OK
409,ROOFTOP,"209 Flinders Ln, Melbourne VIC 3000, Australia","Anglican Parish Church VIC,Australia",-37.8163569,144.9678441,1,3000,OK
410,ROOFTOP,"62 Mark St, North Melbourne VIC 3051, Australia","Life Church Church VIC,Australia",-37.7934011,144.9379942,1,3051,OK
411,ROOFTOP,"1012 E 8th St, Chandler, OK 74834, USA","VictoryLife Church VIC,Australia",35.7036964,-96.8685047,1,74834,OK
412,GEOMETRIC_CENTER,"Great Alpine Rd, Wangaratta VIC 3677, Australia","Wangaratta Wesleyan Methodist Church VIC,Australia",-36.3509115,146.3348884,1,3677,OK
413,ROOFTOP,"1718 Fry Rd #160, Houston, TX 77084, USA","Faith City Church VIC,Australia",29.791183,-95.717012,1,77084,OK
414,ROOFTOP,"154 Melrose Dr, Wodonga VIC 3690, Australia","Wodonga District Baptist Church VIC,Australia",-36.1328495,146.8651467,1,3690,OK
415,GEOMETRIC_CENTER,"Waterloo, IA 50702, USA","Ambassadors of Jesus Church VIC,Australia",42.4802643,-92.3471299,1,50702,OK
416,ROOFTOP,"87 Hansen St, Corryong VIC 3707, Australia","Corryong Baptist Church VIC,Australia",-36.197095,147.902292,2,3707,OK
417,ROOFTOP,"200 Tarneit Rd, Werribee VIC 3030, Australia","Church of Christ Church VIC,Australia",-37.8830629,144.6626053,1,3030,OK
418,ROOFTOP,"35 Ferres Blvd, South Morang VIC 3752, Australia","Planetshakers Church North Campus Church VIC,Australia",-37.643673,145.068718,1,3752,OK
419,ROOFTOP,"31-61 McLeans Rd, Bundoora VIC 3083, Australia","Encompass Church VIC,Australia",-37.6944794,145.054664,2,3083,OK
420,GEOMETRIC_CENTER,"28 Forest St., Whittlesea VIC 3757, Australia","New Horizons Church VIC,Australia",-37.511734,145.121374,1,3757,OK
421,ROOFTOP,"590 W Avon Rd, Avon, CT 06001, USA","Plenty Valley Baptist Community Church VIC,Australia",41.7783629,-72.8621971,1,6001,OK
422,ROOFTOP,"7 Commercial Dr, Wallan VIC 3756, Australia","Wallan Gateway Church VIC,Australia",-37.4176184,145.00181,1,3756,OK
423,ROOFTOP,"1248 High St Rd, Wantirna South VIC 3152, Australia","CityLife Church VIC,Australia",-37.878226,145.215003,1,3152,OK
424,GEOMETRIC_CENTER,"28 Forest St., Whittlesea VIC 3757, Australia","New Horizons Church VIC,Australia",-37.511734,145.121374,1,3757,OK
425,ROOFTOP,"400 SW Lake Village Blvd, Blue Springs, MO 64014, USA","Heartland Church VIC,Australia",38.981715,-94.270942,1,64014,OK
426,ROOFTOP,"1 Lilydale Rd, Healesville VIC 3777, Australia","Liberty Family Church VIC,Australia",-37.657605,145.509361,1,3777,OK
427,ROOFTOP,"7 Bowen St, Camberwell VIC 3124, Australia","Salvation Army Church VIC,Australia",-37.839092,145.063617,1,3124,OK
428,ROOFTOP,"86 Clendon Rd, Toorak VIC 3142, Australia","St John's Anglican Church VIC,Australia",-37.841997,145.0145036,1,3142,OK
429,ROOFTOP,"40/42 Gilbert Rd, Melbourne VIC 3072, Australia","St. Mark's Church Church VIC,Australia",-37.749541,144.988424,1,3072,OK
430,ROOFTOP,"184 Surrey Rd, Blackburn VIC 3130, Australia","Ranges Community Church VIC,Australia",-37.8156422,145.1565214,1,3130,OK
431,ROOFTOP,"47-49 Carronvale Rd, Mooroolbark VIC 3138, Australia","Carronvale Road Christian Church VIC,Australia",-37.781394,145.3282001,1,3138,OK
432,ROOFTOP,"832-834 High St Rd, Glen Waverley VIC 3150, Australia","Discovery Church VIC,Australia",-37.875248,145.1725537,2,3150,OK
433,ROOFTOP,"5/9 Clarke St, Lilydale VIC 3140, Australia","Yarra Valley Vineyard Church VIC,Australia",-37.7579779,145.3506275,2,3140,OK
434,ROOFTOP,"3039 Warburton Hwy, Millgrove VIC 3799, Australia","River Valley Church Church VIC,Australia",-37.755504,145.652106,1,3799,OK
435,ROOFTOP,"Monash University Clayton Campus, 38 Exhibition Walk, Clayton VIC 3800, Australia","The Good Shepherd Australian Orthodox Mission Church VIC,Australia",-37.911867,145.134207,1,3800,OK
436,ROOFTOP,"328 Bayswater Rd, Bayswater North VIC 3153, Australia","Calvary Melbourne Church VIC,Australia",-37.8313456,145.2686387,1,3153,OK
437,ROOFTOP,"58 Reema Blvd, Endeavour Hills VIC 3802, Australia","Grace Community Bible Church Church VIC,Australia",-37.9739534,145.2736352,1,3802,OK
438,ROOFTOP,"11 Eastlink Dr, Hallam VIC 3803, Australia","Life to the Nations Christian Fellowship Church VIC,Australia",-38.013003,145.256112,1,3803,OK
439,ROOFTOP,"2-8 Gleneagles Dr, Endeavour Hills VIC 3802, Australia","South Eastern Christian Centre Church VIC,Australia",-37.9667706,145.2635937,1,3802,OK
440,ROOFTOP,"15 Cavell St, Scoresby VIC 3179, Australia","Hope Community Church VIC,Australia",-37.888923,145.235697,1,3179,OK
441,ROOFTOP,"Timbarra Hall, Timbarra Way, Berwick VIC 3806, Australia","Anchor Baptist Church VIC,Australia",-38.02464,145.326084,1,3806,OK
442,ROOFTOP,"55 Peel St, Berwick VIC 3806, Australia","Berwick Anglican Church VIC,Australia",-38.0315392,145.3538078,1,3806,OK
443,ROOFTOP,"432-446 Centre Rd, Berwick VIC 3806, Australia","Berwick Vineyard Church VIC,Australia",-38.048675,145.335825,1,3806,OK
444,ROOFTOP,"1248 High St Rd, Wantirna South VIC 3152, Australia","CityLife Church VIC,Australia",-37.878226,145.215003,1,3152,OK
445,ROOFTOP,"Beaconsfield Community Centre, Oneil Rd, Beaconsfield VIC 3807, Australia","Friends First Church Church VIC,Australia",-38.0523143,145.380088,1,3807,OK
446,ROOFTOP,"426 Princes Hwy, Narre Warren VIC 3805, Australia","Casey City Church Church VIC,Australia",-38.025455,145.3065564,1,3805,OK
447,ROOFTOP,"54-60 Intrepid St, Berwick VIC 3806, Australia","Winepress Church VIC,Australia",-38.0366292,145.3369305,1,3806,OK
448,ROOFTOP,"7 Desmond Ct, Beaconsfield VIC 3807, Australia","Beaconsfield Baptist Church VIC,Australia",-38.053413,145.375852,1,3807,OK
449,ROOFTOP,"LOT 1 Army Rd, Pakenham VIC 3810, Australia","Cardinia Christian Centre Church VIC,Australia",-38.053111,145.499037,1,3810,OK
450,ROOFTOP,"259 - 261 Eleventh St, Mildura VIC 3500, Australia","Heart Changing Church Church VIC,Australia",-34.1877724,142.1537089,1,3500,OK
451,ROOFTOP,"St James Anglican Church, 84 Beenak Rd, Wandin North VIC 3139, Australia","St James Anglican Church VIC,Australia",-37.7888531,145.4332627,1,3139,OK
452,GEOMETRIC_CENTER,"Cnr Church St & Winters Ave, Drouin VIC 3818, Australia","Drouin Presbyterian Church VIC,Australia",-38.1364741,145.8542086,1,3818,OK
453,ROOFTOP,"2/177 Beavers Rd, Northcote VIC 3070, Australia","Community Church Church VIC,Australia",-37.7653809,144.9859464,1,3070,OK
454,ROOFTOP,"69 Sutton St, Warragul VIC 3820, Australia","Rope Factory Church Church VIC,Australia",-38.1506701,145.927126,1,3820,OK
455,ROOFTOP,"36 George St, Moe VIC 3825, Australia","Gippsland Christian Church Church VIC,Australia",-38.17589,146.262,1,3825,OK
456,ROOFTOP,"6809 Belair Rd, Baltimore, MD 21206, USA","The Redeemed Christian Church of God Abundant Life Parish Church VIC,Australia",39.3564265,-76.5284031,1,21206,OK
457,ROOFTOP,"69 Princes Dr, Morwell VIC 3840, Australia","Eternity Church VIC,Australia",-38.23269,146.384809,1,3840,OK
458,ROOFTOP,"50 Church St, Morwell VIC 3840, Australia","Morwell Presbyterian Church VIC,Australia",-38.234675,146.400107,2,3840,OK
459,ROOFTOP,"80 Henry St, Traralgon VIC 3844, Australia","Now Church Church VIC,Australia",-38.1969946,146.5222647,1,3844,OK
460,ROOFTOP,"453 Raymond St, Sale VIC 3850, Australia","Anglican Diocese of Gippsland Church VIC,Australia",-38.103816,147.064965,1,3850,OK
461,GEOMETRIC_CENTER,"Princes Hwy & Cobains Rd, Sale VIC 3850, Australia","Sale Baptist Church VIC,Australia",-38.0854008,147.0692395,1,3850,OK
462,ROOFTOP,"103 Bairnsdale-Dargo Rd, Bairnsdale VIC 3875, Australia","Bairnsdale church of Christ Church VIC,Australia",-37.8409686,147.576981,1,3875,OK
463,ROOFTOP,"141 Princes Hwy, Lakes Entrance VIC 3909, Australia","Lakes Entrance Baptist Church VIC,Australia",-37.8649222,148.0203816,1,3909,OK
464,ROOFTOP,"185 North Rd, Langwarrin VIC 3910, Australia","Langwarrin Pearcedale Anglican Church VIC,Australia",-38.164565,145.189363,1,3910,OK
465,ROOFTOP,"1/100 Champion Rd, Newport VIC 3015, Australia","Langwarrin Vineyard Church VIC,Australia",-37.849451,144.875844,1,3015,OK
466,ROOFTOP,"99 The Crescent, Tyabb VIC 3913, Australia","Western Port Christian Family Church VIC,Australia",-38.2611304,145.1914243,1,3913,OK
467,ROOFTOP,"299 Webro Rd, Parsippany, NJ 07054, USA","Liquid Church Church VIC,Australia",40.855952,-74.416534,1,7054,OK
468,ROOFTOP,"370 Craigie Rd, Mount Martha VIC 3934, Australia","New Peninsula Church VIC,Australia",-38.265132,145.068079,2,3934,OK
469,ROOFTOP,"4 Mine Rd, Korumburra VIC 3950, Australia","Southern Hills AOG Church VIC,Australia",-38.4344404,145.8249659,1,3950,OK
470,ROOFTOP,"195 Hallam Rd, Lynbrook VIC 3975, Australia","United Pentecostal Church Church VIC,Australia",-38.0454493,145.2640349,1,3975,OK
471,ROOFTOP,"4/37B Fordholm Rd, Hampton Park VIC 3805, Australia","Casey Life Church VIC,Australia",-38.0348584,145.2646884,2,3805,OK
472,ROOFTOP,"875 State Park Rd, Greenville, SC 29609, USA","Hampton Park Baptist Church VIC,Australia",34.8983596,-82.397092,1,29609,OK
473,ROOFTOP,"49-51 Cameron St, Cranbourne East VIC 3977, Australia","Deeper Christian Life Ministry Church VIC,Australia",-38.1158543,145.2891115,1,3977,OK
474,ROOFTOP,"1109 Hill St, Buffalo, TX 75831, USA","Miracle Christian Centre Church VIC,Australia",31.4569589,-96.08025,1,75831,OK
475,ROOFTOP,"129 Sladen St, Cranbourne VIC 3977, Australia","St Agathas Parish Church VIC,Australia",-38.1118925,145.2784449,2,3977,OK
